{
	"Restaurants": [null, {
		"cost_for_two": 700,
		"location": {
			"address": "144-C/1, Kirloskar Rd, Bommasandra Industrial Area, Bengaluru, Karnataka",
			"area": "Bommasandra Industrial Area",
			"city": "Bangalore",
			"country": "India",
			"state": "Karnataka"
		},
		"menu": {
			"Package 1": {
				"Item 1": 500,
				"Item 2": 600
			},
			"Package 2": {
				"Item 3": 700,
				"Item 4": 800
			}
		},
		"name": "Anna's Kitchen",
		"rating": 4.5,
		"tags": "Indian, Asian, South"
	}, {
		"cost_for_two": 700,
		"location": {
			"address": "144-C/1, Kirloskar Rd, Bommasandra Industrial Area, Bengaluru, Karnataka",
			"area": "Bommasandra Industrial Area",
			"city": "Bangalore",
			"country": "India",
			"state": "Karnataka"
		},
		"menu": {
			"Package 1": {
				"Item 1": 500,
				"Item 2": 600
			},
			"Package 2": {
				"Item 3": 700,
				"Item 4": 800
			}
		},
		"name": "Novelty",
		"rating": 4.5,
		"tags": "Indian, Asian"
	}, {
		"cost_for_two": 700,
		"location": {
			"address": "144-C/1, Kirloskar Rd, Bommasandra Industrial Area, Bengaluru, Karnataka",
			"area": "Bommasandra Industrial Area",
			"city": "Bangalore",
			"country": "India",
			"state": "Karnataka"
		},
		"menu": {
			"Package 1": {
				"Item 1": 500,
				"Item 2": 600
			},
			"Package 2": {
				"Item 3": 700,
				"Item 4": 800
			}
		},
		"name": "Equinox",
		"rating": 4.5,
		"tags": "Oriental"
	}, {
		"cost_for_two": 700,
		"location": {
			"address": "144-C/1, Kirloskar Rd, Bommasandra Industrial Area, Bengaluru, Karnataka",
			"area": "Bommasandra Industrial Area",
			"city": "Bangalore",
			"country": "India",
			"state": "Karnataka"
		},
		"menu": {
			"Package 1": {
				"Item 1": 500,
				"Item 2": 600
			},
			"Package 2": {
				"Item 3": 700,
				"Item 4": 800
			}
		},
		"name": "Utsav",
		"rating": 4.5,
		"tags": "Indian"
	}, {
		"cost_for_two": 700,
		"location": {
			"address": "144-C/1, Kirloskar Rd, Bommasandra Industrial Area, Bengaluru, Karnataka",
			"area": "Bommasandra Industrial Area",
			"city": "Bangalore",
			"country": "India",
			"state": "Karnataka"
		},
		"menu": {
			"Package 1": {
				"Item 1": 500,
				"Item 2": 600
			},
			"Package 2": {
				"Item 3": 700,
				"Item 4": 800
			}
		},
		"name": "Time Traveller",
		"rating": 4.5,
		"tags": "Indian, Asian"
	}]
}
